$GPGGA,001520.000,4734.1310,N,12207.9567,W,1,06,1.37,167.9,M,-17.3,M,,*56
$GPGGA,001522.000,4734.1317,N,12207.9567,W,1,06,1.37,167.9,M,-17.3,M,,*53
$GPGGA,001527.000,4734.1323,N,12207.9571,W,1,06,1.46,167.8,M,-17.3,M,,*51
$GPGGA,001534.000,4734.1321,N,12207.9566,W,1,06,1.37,167.5,M,-17.3,M,,*5C
$GPGGA,001535.000,4734.1322,N,12207.9567,W,1,06,1.37,167.5,M,-17.3,M,,*5F
$GPGGA,001537.000,4734.1321,N,12207.9566,W,1,06,1.37,167.5,M,-17.3,M,,*5F
$GPGGA,001540.000,4734.1319,N,12207.9562,W,1,06,1.37,167.4,M,-17.3,M,,*51
$GPGGA,001541.000,4734.1319,N,12207.9563,W,1,06,1.37,167.4,M,-17.3,M,,*51
$GPGGA,001542.000,4734.1318,N,12207.9564,W,1,06,1.37,167.4,M,-17.3,M,,*54
$GPGGA,001543.000,4734.1316,N,12207.9562,W,1,06,1.37,167.3,M,-17.3,M,,*5A
$GPGGA,001552.000,4734.1320,N,12207.9559,W,1,06,1.37,167.3,M,-17.3,M,,*57
$GPGGA,001553.000,4734.1320,N,12207.9559,W,1,06,1.37,167.3,M,-17.3,M,,*56
$GPGGA,001555.000,4734.1321,N,12207.9558,W,1,06,1.46,167.3,M,-17.3,M,,*56
$GPGGA,001557.000,4734.1322,N,12207.9548,W,1,06,1.37,167.2,M,-17.3,M,,*51
$GPGGA,001558.000,4734.1321,N,12207.9542,W,1,06,1.37,167.2,M,-17.3,M,,*57
$GPGGA,001600.000,4734.1322,N,12207.9540,W,1,06,1.37,167.2,M,-17.3,M,,*58
$GPGGA,001603.000,4734.1320,N,12207.9540,W,1,06,1.37,167.2,M,-17.3,M,,*59
$GPGGA,001605.000,4734.1321,N,12207.9535,W,1,06,1.37,167.2,M,-17.3,M,,*5C
$GPGGA,001606.000,4734.1320,N,12207.9533,W,1,06,1.37,167.2,M,-17.3,M,,*58
$GPGGA,001607.000,4734.1322,N,12207.9532,W,1,06,1.37,167.3,M,-17.3,M,
$GPGGA,001612.000,4734.1322,N,12207.9533,W,1,06,1.37,167.3,M,-17.3,M,,*5E
$GPGGA,001613.000,4734.1323,N,12207.9533,W,1,06,1.37,167.3,M,-17.3,M,,*5E
$GPGGA,001614.000,4734.1323,N,12207.9532,W,1,06,1.37,167.4,M,-17.3,M,,*5F
$GPGGA,001615.000,4734.1322,N,12207.9531,W,1,06,1.37,167.4,M,-17.3,M,,*5C
$GPGGA,001620.000,4734.1319,N,12207.9533,W,1,06,1.37,167.4,M,-17.3,M,,*50
$GPGGA,001621.000,4734.1319,N,12207.9531,W,1,06,1.37,167.4,M,-17.3,M,,*53
$GPGGA,001622.000,4734.1319,N,12207.9530,W,1,06,1.37,167.4,M,-17.3,M,,*51
$GPGGA,001624.000,4734.1321,N,12207.9529,W,1,06,1.37,167.4,M,-17.3,M,,*54
$GPGGA,001626.000,4734.1321,N,12207.9528,W,1,06,1.37,167.4,M,-17.3,M,,*57
$GPGGA,001630.000,4734.1319,N,12207.9529,W,1,06,1.37,167.4,M,-17.3,M,,*5A
$GPGGA,002106.000,4734.1306,N,12207.9560,W,1,06,1.37,160.0,M,-17.3,M,,*5B
$GPGGA,002107.000,4734.1309,N,12207.9563,W,1,06,1.37,160.0,M,-17.3,M,,*56
$GPGGA,002109.000,4734.1311,N,12207.9563,W,1,06,1.37,159.9,M,-17.3,M,,*52
$GPGGA,002110.000,4734.1311,N,12207.9563,W,1,06,1.37,159.9,M,-17.3,M,,*5A
$GPGGA,002111.000,4734.1310,N,12207.9562,W,1,06,1.37,159.9,M,-17.3,M,,*5B
$GPGGA,002113.000,4734.1307,N,12207.9560,W,1,06,1.37,159.7,M,-17.3,M,,*53
$GPGGA,002114.000,4734.1306,N,12207.9559,W,1,06,1.37,159.6,M,-17.3,M,,*5E
$GPGGA,002117.000,4734.1305,N,12207.9563,W,1,06,1.37,159.4,M,-17.3,M,,*55
$GPGGA,002120.000,4734.1307,N,12207.9567,W,1,06,1.37,159.2,M,-17.3,M,,*51
$GPGGA,002121.000,4734.1309,N,12207.9569,W,1,06,1.37,159.2,M,-17.3,M,,*50
$GPGGA,002132.000,4734.1308,N,12207.9572,W,1,06,1.37,159.2,M,-17.3,M,,*59
$GPGGA,002138.000,4734.1306,N,12207.9574,W,1,06,1.37,159.1,M,-17.3,M,,*58
$GPGGA,002140.000,4734.1303,N,12207.9575,W,1,06,1.37,158.9,M,-17.3,M,,*5A
$GPGGA,002142.000,4734.1302,N,12207.9574,W,1,06,1.37,158.9,M,-17.3,M,,*58
$GPGGA,002145.000,4734.1301,N,12207.9577,W,1,06,1.37,158.8,M,-17.3,M,,*5E
$GPGGA,002148.000,4734.1301,N,12207.9575,W,1,06,1.37,158.8,M,-17.3,M,,*51
$GPGGA,002152.000,4734.1294,N,12207.9570,W,1,06,1.37,158.6,M,-17.3,M,,*5C
$GPGGA,002155.000,4734.1297,N,12207.9568,W,1,06,1.37,158.5,M,-17.3,M,,*52
$GPGGA,002156.000,4734.1297,N,12207.9568,W,1,06,1.37,158.4,M,-17.3,M,,*50
$GPGGA,002157.000,4734.1299,N,12207.9572,W,1,06,1.37,158.4,M,-17.3,M,,*54
$GPGGA,002208.000,4734.1303,N,12207.9582,W,1,06,1.37,158.0,M,-17.3,M,,*54
$GPGGA,002209.000,4734.1304,N,12207.9582,W,1,06,1.37,157.9,M,-17.3,M,,*54
$GPGGA,002210.000,4734.1304,N,12207.9581,W,1,06,1.37,157.9,M,-17.3,M,,*5F
$GPGGA,002211.000,4734.1303,N,12207.9581,W,1,06,1.37,157.9,M,-17.3,M,,*59
$GPGGA,002215.000,4734.1302,N,12207.9582,W,1,06,1.37,157.8,M,-17.3,M,,*5E
$GPGGA,002217.000,4734.1304,N,12207.9580,W,1,06,1.37,157.8,M,-17.3,M,,*58
$GPGGA,002219.000,4734.1306,N,12207.9580,W,1,06,1.46,157.8,M,-17.3,M,,*52
$GPGGA,002220.000,4734.1307,N,12207.9579,W,1,06,1.37,157.8,M,-17.3,M,,*59
$GPGGA,002222.000,4734.1308,N,12207.9577,W,1,06,1.37,157.8,M,-17.3,M,,*5A
$GPGGA,002223.000,4734.1303,N,12207.9573,W,1,06,1.37,157.7,M,-17.3,M,,*5B
$GPGGA,002230.000,4734.1308,N,12207.9572,W,1,06,1.46,157.3,M,-17.3,M,,*51
$GPGGA,002232.000,4734.1308,N,12207.9575,W,1,06,1.37,157.3,M,-17.3,M,,*52
$GPGGA,002234.000,4734.1307,N,12207.9577,W,1,06,1.37,157.3,M,-17.3,M,,*59
$GPGGA,002236.000,4734.1307,N,12207.9576,W,1,06,1.46,157.3,M,-17.3,M,,*5C
$GPGGA,002239.000,4734.1307,N,12207.9577,W,1,06,1.37,157.3,M,-17.3,M,,*54
$GPGGA,002242.000,4734.1307,N,12207.9585,W,1,06,1.37,157.6,M,-17.3,M,,*50
$GPGGA,002243.000,4734.1307,N,12207.9585,W,1,06,1.37,157.6,M,-17.3,M,,*51
$GPGGA,002247.000,4734.1305,N,12207.9591,W,1,06,1.37,157.6,M,-17.3,M,,*52
$GPGGA,002250.000,4734.1310,N,12207.9599,W,1,06,1.37,157.7,M,-17.3,M,,*59
$GPGGA,002251.000,4734.1309,N,12207.9593,W,1,06,1.37,157.8,M,-17.3,M,,*55
$GPGGA,002257.000,4734.1310,N,12207.9593,W,1,06,1.37,158.2,M,-17.3,M,,*5E
$GPGGA,002302.000,4734.1317,N,12207.9590,W,1,06,1.37,158.5,M,-17.3,M,,*5C
$GPGGA,002303.000,4734.1317,N,12207.9589,W,1,06,1.37,158.5,M,-17.3,M,,*55
$GPGGA,002305.000,4734.1315,N,12207.9587,W,1,06,1.37,158.6,M,-17.3,M,,*5C
$GPGGA,002307.000,4734.1317,N,12207.9591,W,1,06,1.37,158.7,M,-17.3,M,,*5A
$GPGGA,002313.000,4734.1315,N,12207.9596,W,1,06,1.46,158.7,M,-17.3,M,,*5C
$GPGGA,002314.000,4734.1315,N,12207.9594,W,1,06,1.37,158.7,M,-17.3,M,,*5F
$GPGGA,002315.000,4734.1315,N,12207.9592,W,1,06,1.37,158.7,M,-17.3,M,,*58
$GPGGA,002316.000,4734.1317,N,12207.9591,W,1,06,1.46,158.8,M,-17.3,M,,*53
$GPGGA,002324.000,4734.1321,N,12207.9588,W,1,06,1.46,158.8,M,-17.3,M,,*5F
$GPGGA,002334.000,4734.1313,N,12207.9587,W,1,06,1.37,158.6,M,-17.3,M,,*58
$GPGGA,002335.000,4734.1317,N,12207.9590,W,1,06,1.46,158.6,M,-17.3,M,,*5D
$GPGGA,002337.000,4734.1315,N,12207.9586,W,1,06,1.37,158.7,M,-17.3,M,,*5D
$GPGGA,002338.000,4734.1314,N,12207.9581,W,1,06,1.37,158.6,M,-17.3,M,,*55
$GPGGA,002339.000,4734.1314,N,12207.9580,W,1,06,1.37,158.6,M,-17.3,M,,*55
$GPGGA,002340.000,4734.1314,N,12207.9580,W,1,06,1.37,158.6,M,-17.3,M,,*5B
$GPGGA,002342.000,4734.1315,N,12207.9580,W,1,06,1.46,158.6,M,-17.3,M,,*5E
$GPGGA,002343.000,4734.1315,N,12207.9577,W,1,06,1.37,158.6,M,-17.3,M,,*51
$GPGGA,002344.000,4734.1314,N,12207.9574,W,1,06,1.37,158.6,M,-17.3,M,,*54
$GPGGA,002345.000,4734.1311,N,12207.9572,W,1,06,1.37,158.6,M,-17.3,M,,*56
